City_ID,City,Lat,Lng,Max Temp,Humidity,Cloudiness,Wind Speed,Country,Date
0,papatowai,-46.5619,169.4708,8.22,80,91,1.07,NZ,1710173481
1,trairi,-3.2778,-39.2689,31.37,61,78,3.58,BR,1710173481
2,utrik,11.2278,169.8474,26.84,77,88,9.78,MH,1710173481
3,corner brook,48.9667,-57.9484,2.47,84,100,8.97,CA,1710173481
4,pariaman,-0.619,100.12,26.03,87,83,1.45,ID,1710173481
5,quellon,-43.1167,-73.6167,12.71,97,100,6.66,CL,1710173481
6,dudinka,69.4058,86.1778,-24.62,99,99,2.24,RU,1710173481
7,longyearbyen,78.2186,15.6401,-12.09,72,75,6.69,SJ,1710173481
8,dunedin,-45.8742,170.5036,10.45,99,100,1.34,NZ,1710173482
9,ancud,-41.8697,-73.8203,14.47,87,100,5.85,CL,1710173482
10,el calafate,-50.3408,-72.2768,7.19,75,100,0.49,AR,1710173408
11,edinburgh of the seven seas,-37.0676,-12.3116,15.86,61,51,4.27,SH,1710173482
12,port-aux-francais,-49.35,70.2167,8.24,83,83,13.96,TF,1710173482
13,isangel,-19.55,169.2667,26.87,91,80,3.14,VU,1710173482
14,tsengel,49.4783,100.8894,-8.19,81,100,2.31,MN,1710173482
15,mount darwin,-16.7725,31.5838,26.89,54,49,1.77,ZW,1710173483
16,kafir qala,34.6667,61.0667,17.14,48,60,3.31,AF,1710173483
17,adamstown,-25.066,-130.1015,21.96,88,100,1.98,PN,1710173483
18,jamestown,42.097,-79.2353,2.79,63,40,7.72,US,1710173483
19,fort bragg,35.139,-79.006,12.58,28,2,2.68,US,1710173483
20,grytviken,-54.2811,-36.5092,8.87,79,97,5.65,GS,1710173483
21,bethel,41.3712,-73.414,6.41,56,100,8.23,US,1710173483
22,waitangi,-43.9535,-176.5597,12.12,79,95,0.45,NZ,1710173483
23,port mathurin,-19.6833,63.4167,26.59,83,62,10.19,MU,1710173484
24,haiku-pauwela,20.9219,-156.3051,21.13,84,20,7.2,US,1710173484
25,leava,-14.3,-178.1667,28.87,79,100,3.92,WF,1710173484
26,galle,6.0367,80.217,26.97,73,21,1.02,LK,1710173484
27,howrah,22.5892,88.3103,27.0,57,0,3.6,IN,1710173280
28,isafjordur,66.0755,-23.124,4.02,70,75,8.23,IS,1710173484
29,dakhla,23.6848,-15.958,18.23,73,100,7.8,EH,1710173484
30,zhangjiakou,40.81,114.8794,0.37,44,0,3.18,CN,1710173485
31,yurty,56.0498,97.6348,-4.49,97,73,2.21,RU,1710173485
32,keflavik,64.0049,-22.5624,4.24,60,20,5.14,IS,1710173485
33,kokpekty,48.75,82.4,-3.38,99,100,1.45,KZ,1710173485
34,margaret river,-33.95,115.0667,17.5,69,0,6.02,AU,1710173485
35,lorengau,-2.0226,147.2712,27.94,83,98,6.53,PG,1710173485
36,sinabang,2.4803,96.3801,27.4,81,40,2.47,ID,1710173254
37,thompson,55.7435,-97.8558,1.16,100,100,1.75,CA,1710173485
38,ushuaia,-54.8,-68.3,9.79,72,100,0.8,AR,1710173352
39,morehead city,34.7229,-76.726,13.37,37,0,7.72,US,1710173486
40,lazaro cardenas,17.9583,-102.2,27.7,45,0,0.96,MX,1710173431
41,olonkinbyen,70.9221,-8.7187,-0.17,90,83,3.53,SJ,1710173486
42,albany,42.6001,-73.9662,2.73,62,35,6.26,US,1710173486
43,saipan,15.1355,145.701,26.39,78,75,8.75,MP,1710173486
44,yellowknife,62.456,-114.3525,-18.3,92,24,2.19,CA,1710173486
45,vadso,70.0744,29.7487,2.49,80,75,7.72,NO,1710173486
46,harstad,68.799,16.5293,3.66,91,97,1.34,NO,1710173486
47,cles,46.3667,11.0333,13.3,67,100,0.42,IT,1710173487
48,wailua homesteads,22.0669,-159.378,21.24,89,75,9.26,US,1710173487
49,brooks,50.5834,-111.8851,2.8,78,3,4.24,CA,1710173487
50,tiksi,71.6872,128.8694,-22.65,98,100,1.97,RU,1710173488
51,port augusta,-32.5,137.7667,28.19,25,24,2.53,AU,1710173266
52,ust-nera,64.5667,143.2,-28.77,100,94,0.82,RU,1710173488
53,puerto ayacucho,5.6639,-67.6236,37.12,37,67,0.88,VE,1710173488
54,alice springs,-23.7,133.8833,25.75,52,40,3.09,AU,1710173488
55,belmonte,-15.8631,-38.8828,30.56,67,59,4.87,BR,1710173488
56,mil'kovo,55.6078,37.7956,1.27,90,100,5.11,RU,1710173488
57,cockburn town,21.4612,-71.1419,25.33,78,0,1.56,TC,1710173488
58,villa del totoral,-30.8167,-63.7167,31.53,60,66,5.15,AR,1710173488
59,cidreira,-30.1811,-50.2056,24.63,61,0,4.31,BR,1710173489
60,walvis bay,-22.9575,14.5053,18.94,73,50,2.0,NA,1710173489
61,general roca,-39.0333,-67.5833,26.45,19,0,0.91,AR,1710173489
62,moreira sales,-24.0622,-53.0069,32.8,45,44,4.42,BR,1710173489
63,port elizabeth,-33.918,25.5701,26.17,93,52,4.02,ZA,1710173212
64,rawah,34.4816,41.9093,17.18,32,0,4.07,IQ,1710173489
65,mount gambier,-37.8333,140.7667,17.39,78,27,2.06,AU,1710173489
66,sitka,57.0531,-135.33,2.94,70,75,7.72,US,1710173489
67,ribeira grande,38.5167,-28.7,16.54,88,75,8.23,PT,1710173489
68,hakui,36.8833,136.7833,9.51,68,100,1.35,JP,1710173490
69,puerto natales,-51.7236,-72.4875,13.25,47,75,3.6,CL,1710173214
70,lebu,-37.6167,-73.65,17.18,70,0,5.89,CL,1710173490
71,san patricio,28.017,-97.5169,22.15,59,60,3.59,US,1710173490
72,chimore,-16.9833,-65.1333,32.89,56,82,2.31,BO,1710173490
73,sao paulo de olivenca,-3.3783,-68.8725,33.14,55,97,1.14,BR,1710173490
74,grand island,40.925,-98.342,12.97,45,0,4.12,US,1710173490
75,danjiangkou,32.5428,111.5086,14.69,35,0,1.69,CN,1710173490
76,zaozersk,69.4005,32.4476,-0.6,91,100,5.9,RU,1710173491
77,bodo,67.28,14.405,3.02,65,0,1.03,NO,1710173491
78,manastirea,44.2167,26.9,12.79,66,100,8.08,RO,1710173491
79,kerman,30.2832,57.0788,12.92,44,75,11.32,IR,1710173316
80,saint-pierre,-21.3393,55.4781,27.82,83,75,3.09,RE,1710173491
81,antonio enes,-16.2325,39.9086,28.55,82,92,5.22,MZ,1710173491
82,coahuayana de hidalgo,18.7,-103.6583,27.53,54,0,1.43,MX,1710173491
83,fort st. john,56.2499,-120.8529,-3.39,91,100,2.14,CA,1710173491
84,bredasdorp,-34.5322,20.0403,22.97,73,0,5.6,ZA,1710173491
85,aykhal,66.0,111.5,-14.29,97,100,0.9,RU,1710173492
86,badger,64.8,-147.5333,-18.07,55,100,3.09,US,1710173492
87,arquitecto tomas romero pereira,-26.4833,-55.25,34.98,34,64,2.4,PY,1710173272
88,ola,59.5833,151.2833,-12.14,90,100,2.96,RU,1710173492
89,aasiaat,68.7098,-52.8699,-16.77,91,93,0.86,GL,1710173492
90,lake havasu city,34.4839,-114.3224,21.79,27,12,2.24,US,1710173492
91,pangody,65.85,74.4859,-24.17,100,99,1.61,RU,1710173492
92,iqaluit,63.7506,-68.5145,-21.18,66,4,0.66,CA,1710173492
93,uturoa,-16.7333,-151.4333,28.05,78,79,3.4,PF,1710173492
94,yuzhno-kurilsk,44.0306,145.8556,-0.35,65,89,2.12,RU,1710173493
95,college,64.8569,-147.8028,-18.03,55,100,3.09,US,1710173493
96,bochum,51.4833,7.2167,9.36,95,100,1.34,DE,1710173025
97,hithadhoo,-0.6,73.0833,28.51,70,23,3.85,MV,1710173493
98,drummondville,45.8834,-72.4824,-0.55,78,100,2.24,CA,1710173493
99,sisimiut,66.9395,-53.6735,-11.07,83,35,4.35,GL,1710173493
100,atafu village,-8.5421,-172.5159,29.4,77,76,6.36,TK,1710173493
101,rupert,42.6191,-113.6772,3.99,70,100,3.6,US,1710173321
102,punta arenas,-53.15,-70.9167,11.06,50,20,6.69,CL,1710173054
103,alofi,-19.0595,-169.9187,25.79,82,100,1.58,NU,1710173494
104,maceio,-9.6658,-35.7353,34.69,59,40,6.17,BR,1710173494
105,sultanah,24.4926,39.5857,31.25,8,0,5.14,SA,1710173494
106,lahad datu,5.0268,118.327,23.41,94,88,2.42,MY,1710173494
107,meadow lake,34.8014,-106.5436,12.05,40,51,3.57,US,1710173494
108,avarua,-21.2078,-159.775,24.46,89,100,4.29,CK,1710173494
109,codrington,-38.2667,141.9667,18.02,80,23,1.67,AU,1710173495
110,bilibino,68.0546,166.4372,-31.49,100,90,1.76,RU,1710173495
111,xining,36.6167,101.7667,2.39,38,41,0.42,CN,1710173495
112,padang,-0.9492,100.3543,26.03,87,91,1.24,ID,1710173495
113,mosjoen,65.836,13.1908,2.06,54,0,3.6,NO,1710173495
114,vila do maio,15.1333,-23.2167,22.68,68,60,6.06,CV,1710173495
115,hami,42.8,93.45,9.59,26,100,0.76,CN,1710173495
116,ilulissat,69.2167,-51.1,-18.39,94,100,1.32,GL,1710173496
117,al fuwayliq,26.4432,43.2534,20.91,17,0,8.53,SA,1710173496
118,west island,-12.1568,96.8225,25.99,94,75,4.12,CC,1710173496
119,al ghayzah,16.2079,52.176,26.66,79,6,4.49,YE,1710173496
120,kill devil hills,36.0307,-75.676,9.99,44,0,8.23,US,1710173425
121,puerto ayora,-0.7393,-90.3518,26.97,94,78,1.79,EC,1710173496
122,stanley,54.868,-1.6985,5.44,96,75,1.03,GB,1710173496
123,new kingman-butler,35.265,-114.0323,15.1,35,0,3.58,US,1710173496
124,hasaki,35.7333,140.8333,7.22,60,100,8.43,JP,1710173497
125,lihue,21.9789,-159.3672,21.58,88,75,9.26,US,1710173353
126,benguela,-12.5763,13.4055,30.07,67,87,2.73,AO,1710173374
127,guerrero negro,27.9769,-114.0611,16.49,64,68,5.67,MX,1710173497
128,whitehorse,60.7161,-135.0538,-11.61,95,85,2.73,CA,1710173249
129,freetown,8.484,-13.2299,29.05,57,100,4.97,SL,1710173441
130,vilyuchinsk,52.9306,158.4028,-2.82,92,100,3.44,RU,1710173497
131,cabo san lucas,22.8909,-109.9124,23.2,63,75,1.54,MX,1710173497
132,yanchep,-31.55,115.6833,22.19,59,13,5.25,AU,1710173497
133,verkh-chebula,56.0308,87.6218,-4.46,82,88,7.82,RU,1710173497
134,flying fish cove,-10.4217,105.6791,26.82,83,75,8.23,CX,1710173498
135,hamilton,39.1834,-84.5333,9.85,42,0,4.63,US,1710173498
136,qaqortoq,60.7167,-46.0333,-1.71,85,5,1.44,GL,1710173498
137,rawson,-43.3002,-65.1023,22.75,34,83,3.1,AR,1710173498
138,lamu,-2.2717,40.902,28.65,69,25,7.35,KE,1710173284
139,banda aceh,5.5577,95.3222,26.87,80,9,3.56,ID,1710173498
140,novhorod-sivers'kyy,52.0058,33.2615,-1.68,52,1,2.69,UA,1710173498
141,remire-montjoly,4.9167,-52.2667,32.02,66,75,5.14,GF,1710173498
142,moncao,42.0789,-8.4808,15.08,69,100,1.47,PT,1710173498
143,petrovsk,52.3064,45.3917,-8.16,94,100,4.19,RU,1710173499
144,vallenar,-28.5708,-70.7581,27.97,36,0,2.38,CL,1710173215
145,huarmey,-10.0681,-78.1522,25.73,73,48,4.74,PE,1710173499
146,hawaiian paradise park,19.5933,-154.9731,19.46,90,75,2.06,US,1710173499
147,fortuna,40.5982,-124.1573,9.25,92,75,5.14,US,1710173499
148,margherita,27.2833,95.6833,21.29,43,40,1.71,IN,1710173499
149,tommot,58.9564,126.2925,-23.51,98,94,1.32,RU,1710173499
150,tralee,52.2704,-9.7026,10.14,71,75,4.63,IE,1710173239
151,happy valley-goose bay,53.3168,-60.3315,-0.14,83,100,5.43,CA,1710173500
152,bengkulu,-3.8004,102.2655,25.36,89,80,3.14,ID,1710173370
153,gardnerville ranchos,38.8882,-119.7413,7.1,59,22,4.92,US,1710173500
154,kolonia,50.9333,6.95,10.41,88,75,2.06,DE,1710173212
155,thunder bay,48.4001,-89.3168,5.95,44,37,2.12,CA,1710173500
156,lac-brome,45.2168,-72.5158,-1.16,82,100,1.79,CA,1710173500
157,bang saphan,11.2126,99.5117,25.6,88,99,1.38,TH,1710173500
158,deder,9.3167,41.45,20.74,46,91,1.62,ET,1710173500
159,ust-tsilma,65.441,52.1498,-14.1,96,96,2.24,RU,1710173500
160,kapuskasing,49.4169,-82.4331,-1.4,83,99,1.74,CA,1710173387
161,shortandy,51.7006,70.9994,-16.88,100,78,2.53,KZ,1710173501
162,invercargill,-46.4,168.35,10.01,86,90,1.79,NZ,1710173501
163,agat village,13.3886,144.6585,25.53,90,100,6.69,GU,1710173501
164,hohhot,40.8106,111.6522,-2.07,56,1,3.0,CN,1710173501
165,urangan,-25.3,152.9,24.0,86,17,1.79,AU,1710173501
166,weno,7.4515,151.8468,27.18,70,99,10.99,FM,1710173501
167,la union,-5.4,-80.75,30.49,46,97,4.27,PE,1710173501
168,new haven,41.4001,-72.9329,6.69,56,20,10.8,US,1710173284
169,danli,14.0333,-86.5833,28.67,41,37,4.33,HN,1710173501
170,kailua-kona,19.6406,-155.9956,22.98,79,0,2.06,US,1710173501
171,sao felix do xingu,-6.6447,-51.995,32.52,56,18,1.53,BR,1710173502
172,las lomas,8.4333,-82.4,35.67,37,20,9.39,PA,1710173502
173,kilimatinde,-5.85,34.95,21.85,82,49,1.63,TZ,1710173502
174,mejit,10.2753,170.8646,26.78,83,97,10.66,MH,1710173502
175,udachny,66.4167,112.4,-13.64,84,100,0.76,RU,1710173502
176,rocha,-34.4833,-54.3333,29.12,30,97,4.15,UY,1710173502
177,tura,25.5198,90.2201,19.99,35,0,1.09,IN,1710173503
178,la passe,45.5549,-0.8967,13.13,76,18,5.44,FR,1710173503
179,al kharijah,25.4514,30.5464,24.85,10,1,4.48,EG,1710173503
180,sanming,26.2486,117.6186,11.88,95,1,0.78,CN,1710173503
181,beroroha,-21.6667,45.1667,26.84,63,100,0.92,MG,1710173503
182,kampong thom,12.7111,104.8887,29.81,48,98,1.86,KH,1710173503
183,crane,31.3974,-102.3501,14.03,47,0,4.8,US,1710173503
184,bonnyville,54.2668,-110.735,-5.38,95,77,0.52,CA,1710173503
185,conduaga,8.862,117.4893,24.12,81,94,1.75,PH,1710173503
186,kruisfontein,-34.0033,24.7314,24.94,79,0,8.35,ZA,1710173504
187,talnakh,69.4865,88.3972,-27.67,99,100,2.16,RU,1710173289
188,hermanus,-34.4187,19.2345,29.89,63,0,3.9,ZA,1710173504
189,charters towers,-20.1,146.2667,21.31,79,8,3.97,AU,1710173504
190,wabag,-5.4781,143.7021,15.15,99,100,0.34,PG,1710173504
191,mossel bay,-34.1831,22.146,21.74,90,8,6.56,ZA,1710173504
192,himeji,34.8167,134.7,10.71,81,100,0.93,JP,1710173504
193,luderitz,-26.6481,15.1594,21.48,72,8,5.72,NA,1710173284
194,anna regina,7.2644,-58.5077,29.11,61,80,4.23,GY,1710173504
195,anadyr,64.75,177.4833,-27.72,75,0,3.0,RU,1710173505
196,eureka,40.8021,-124.1637,9.4,85,100,2.24,US,1710173505
197,banbridge,54.35,-6.2833,7.85,88,100,1.68,GB,1710173351
198,mount pearl,47.5166,-52.7813,0.53,96,100,4.02,CA,1710173505
199,carolina beach,34.0352,-77.8936,13.95,31,0,1.79,US,1710173505
200,kingston,17.997,-76.7936,27.89,39,0,0.97,JM,1710173345
201,mujiayingzi,42.1167,118.7833,-2.91,41,0,2.12,CN,1710173505
202,saudarkrokur,65.7461,-19.6394,-1.31,83,4,1.27,IS,1710173505
203,iskateley,67.6803,53.1512,-20.55,98,16,2.68,RU,1710173505
204,karratha,-20.7377,116.8463,28.42,69,3,5.23,AU,1710173505
205,chita,52.0333,113.55,-4.06,43,97,5.0,RU,1710173376
206,loch garman,52.3342,-6.4575,10.68,100,100,4.92,IE,1710173214
207,hobyo,5.3505,48.5268,28.48,77,73,5.66,SO,1710173506
208,trondheim,63.4305,10.3951,5.03,70,42,0.45,NO,1710173506
209,polyarnyy,69.1989,33.4478,-1.93,92,100,3.92,RU,1710173506
210,miles city,46.4083,-105.8406,4.54,60,0,3.09,US,1710173506
211,mount isa,-20.7333,139.5,25.87,65,23,2.06,AU,1710173506
212,susuman,62.7833,148.1667,-30.01,100,91,1.34,RU,1710173506
213,nueva helvecia,-34.3,-57.2333,27.12,56,99,3.67,UY,1710173506
214,brookings,44.3114,-96.7984,15.06,51,0,4.12,US,1710173507
215,constantia,44.1833,28.65,8.38,85,100,9.4,RO,1710173507
216,ponta delgada,37.7333,-25.6667,18.44,94,75,9.77,PT,1710173507
217,mana,5.6592,-53.7767,30.58,57,24,3.4,GF,1710173507
218,namibe,-15.1961,12.1522,26.69,75,64,5.95,AO,1710173507
219,sola,-13.8833,167.55,27.92,81,99,8.44,VU,1710173360
220,mariinsk,56.2139,87.7472,-4.35,80,78,7.19,RU,1710173507
221,farah,32.5,62.5,17.07,41,1,1.84,AF,1710173507
222,wuyang,31.9925,116.2472,13.2,52,0,3.68,CN,1710173507
223,kodiak,57.79,-152.4072,-4.27,74,100,2.57,US,1710173508
224,okhotsk,59.3833,143.3,-20.2,91,66,4.24,RU,1710173253
225,berdigestyakh,62.0989,126.6992,-25.59,100,94,1.69,RU,1710173508
226,fort mcmurray,56.7268,-111.381,-7.81,89,99,1.18,CA,1710173508
227,nema,57.5067,50.5011,-8.07,95,100,3.75,RU,1710173508
228,tongliao,43.6125,122.2653,-2.19,49,2,3.79,CN,1710173508
229,bintulu,3.1667,113.0333,25.75,88,50,3.3,MY,1710173508
230,hirara,24.8,125.2833,19.39,88,90,13.22,JP,1710173508
231,la ligua,-32.4524,-71.2311,23.62,53,10,3.37,CL,1710173508
232,chonchi,-42.6128,-73.8092,16.18,95,100,2.95,CL,1710173509
233,blackmans bay,-43.0167,147.3167,21.4,70,91,0.89,AU,1710173509
234,butembo,0.15,29.2833,17.28,93,98,1.47,CD,1710173509
235,nchelenge,-9.3451,28.734,24.85,78,93,2.5,ZM,1710173509
236,nabire,-3.3667,135.4833,24.29,94,100,1.43,ID,1710173509
237,chukhloma,58.7525,42.6825,-1.06,94,100,4.92,RU,1710173509
238,naracoorte,-36.9579,140.7383,22.19,48,22,2.64,AU,1710173509
239,kuragino,53.8975,92.6725,-2.36,99,100,1.88,RU,1710173370
240,west mackay,-21.1481,149.1605,24.59,82,61,7.66,AU,1710173510
241,newman,37.3138,-121.0208,11.69,83,85,0.57,US,1710173278
242,enewetak,11.3474,162.3373,26.6,73,97,9.39,MH,1710173510
243,aleppo,36.25,37.5,13.15,51,22,4.04,SY,1710173510
244,yuncheng,35.0231,110.9928,9.17,25,0,1.34,CN,1710173510
245,shimoda,34.6667,138.95,8.95,72,100,5.22,JP,1710173510
246,al jawf,29.5,38.75,17.08,22,0,2.91,SA,1710173510
247,wanning,18.8003,110.3967,20.51,94,85,3.47,CN,1710173510
248,tymovskoye,50.8456,142.655,-11.02,98,100,0.66,RU,1710173510
249,bechar,31.6167,-2.2167,20.64,23,92,2.78,DZ,1710173511
250,inirida,3.8653,-67.9239,35.95,44,87,1.13,CO,1710173511
251,tarare,45.8976,4.4327,9.01,75,92,1.52,FR,1710173511
252,yoichi,43.2039,140.7703,2.99,85,99,2.75,JP,1710173511
253,puerto aysen,-45.4,-72.7,11.83,98,100,0.77,CL,1710173239
254,opuwo,-18.0607,13.84,31.38,34,54,5.66,NA,1710173511
255,port hedland,-20.3167,118.5667,29.03,79,54,4.12,AU,1710173325
256,tofol,5.3248,163.0078,27.95,81,100,10.91,FM,1710173511
257,arkhangel'sk,64.5401,40.5433,0.07,80,75,3.0,RU,1710173512
258,arno,60.1167,18.6333,0.99,81,24,3.72,SE,1710173512
259,show low,34.2542,-110.0298,10.6,32,0,4.63,US,1710173512
260,port lincoln,-34.7333,135.8667,21.26,73,96,2.57,AU,1710173512
261,sault ste. marie,46.5168,-84.3333,2.31,75,0,0.0,CA,1710173512
262,jianguang,28.1938,115.7836,13.55,84,0,1.88,CN,1710173512
263,gisborne,-38.6533,178.0042,16.8,80,95,2.18,NZ,1710173512
264,afua,-0.1567,-50.3867,27.55,87,88,2.63,BR,1710173512
265,papao,-17.75,-149.55,25.82,83,82,4.39,PF,1710173513
266,colonia,50.9333,6.95,10.41,88,75,2.06,DE,1710173216
267,carbonear,47.7332,-53.2148,1.24,92,100,9.92,CA,1710173335
268,tolanaro,-25.0319,46.9987,25.49,90,54,5.01,MG,1710173325
269,brisas de zicatela,15.8369,-97.0419,29.32,58,0,2.23,MX,1710173513
270,chipata,-13.6333,32.65,22.34,80,62,1.41,ZM,1710173513
271,amarastii de jos,43.95,24.1667,11.66,58,100,8.3,RO,1710173513
272,east london,-33.0153,27.9116,26.36,85,3,7.86,ZA,1710173419
273,roma,43.2128,-75.4557,2.74,52,20,13.89,US,1710173256
274,nar'yan-mar,67.6713,53.087,-20.5,98,17,2.68,RU,1710173513
275,leshan,29.5623,103.7639,16.62,55,59,0.81,CN,1710173514
276,urengoy,65.9667,78.3667,-22.47,100,99,1.52,RU,1710173229
277,youhao,47.8667,128.8333,-14.01,99,92,0.72,CN,1710173514
278,lautoka,-17.6167,177.4667,24.92,94,100,2.57,FJ,1710173514
279,zheleznogorsk,52.331,35.3711,-7.45,89,7,1.88,RU,1710173378
280,bokani,9.4333,5.2,41.77,19,74,2.64,NG,1710173514
281,queenstown,-31.8976,26.8753,32.88,16,1,1.2,ZA,1710173514
282,jose pedro varela,-33.45,-54.5333,29.39,29,50,5.3,UY,1710173345
283,barah,13.7,30.3667,34.91,8,55,4.92,SD,1710173514
284,tazovsky,67.4667,78.7,-26.22,100,96,2.71,RU,1710172887
285,peterhead,57.5058,-1.7981,5.22,86,100,7.31,GB,1710173515
286,dawei,14.0833,98.2,24.37,67,68,1.04,MM,1710173515
287,lompoc,34.6391,-120.4579,14.32,64,0,1.54,US,1710173515
288,afaahiti,-17.75,-149.2833,24.93,83,83,3.46,PF,1710173515
289,chegdomyn,51.1167,133.0167,-22.9,100,46,1.04,RU,1710173515
290,birni n konni,13.7956,5.2553,41.66,7,100,5.8,NE,1710173515
291,smithers,54.7804,-127.1743,-5.07,92,100,0.7,CA,1710173515
292,darnah,32.767,22.6367,22.3,31,1,6.7,LY,1710173515
293,lieksa,63.3167,30.0167,-0.75,87,100,3.02,FI,1710173486
294,goundam,16.4145,-3.6708,38.88,6,67,5.44,ML,1710173387
295,sovetskaya gavan',48.9723,140.2878,-9.39,84,97,2.1,RU,1710173516
296,carnarvon,-24.8667,113.6333,25.11,78,2,9.5,AU,1710173516
297,kronoby,63.7286,23.0339,-0.92,69,0,1.54,FI,1710173516
298,bikenibeu village,1.3673,173.1241,25.98,94,100,5.14,KI,1710173516
299,kholmsk,47.0511,142.0569,-3.61,92,99,3.03,RU,1710173516
300,mtimbira,-8.7833,36.35,24.57,94,91,1.73,TZ,1710173516
301,inari,68.906,27.0288,2.11,95,52,1.98,FI,1710173516
302,dordrecht,51.81,4.6736,8.88,93,100,2.34,NL,1710173403
303,new norfolk,-42.7826,147.0587,22.06,72,86,3.31,AU,1710173516
304,bamboo flat,11.7,92.7167,26.14,64,31,3.33,IN,1710173309
305,sferracavallo,42.726,12.0956,10.47,98,97,3.69,IT,1710173517
306,mukdahan,16.5833,104.5,21.67,72,45,4.8,TH,1710173517
307,la'ie,21.6477,-157.9253,23.98,81,100,4.02,US,1710173517
308,bulungu,-4.55,18.6,25.8,83,100,0.98,CD,1710173517
309,tromso,69.6496,18.957,2.01,93,75,1.54,NO,1710173037
310,port hope,43.9408,-82.7127,4.04,56,90,3.09,US,1710173517
311,palpa,-14.5336,-75.1856,30.45,51,11,3.16,PE,1710173517
312,taree,-31.9,152.4667,16.23,96,96,1.59,AU,1710173518
313,am timan,11.0297,20.2827,41.05,5,59,2.62,TD,1710173518
314,vangaindrano,-23.35,47.6,25.01,90,73,1.41,MG,1710173518
315,livingston,55.9029,-3.5226,7.14,94,100,3.09,GB,1710173496
316,rio grande,-32.035,-52.0986,28.06,54,5,5.15,BR,1710173276
317,tutoia,-2.7619,-42.2744,28.15,83,100,3.68,BR,1710173518
318,callao,-12.0667,-77.15,25.16,73,0,3.6,PE,1710173499
319,marbella,36.5154,-4.8858,19.03,56,3,2.0,ES,1710172973
320,boa vista,2.8197,-60.6733,33.99,40,0,5.14,BR,1710173518
321,shilka,51.85,116.0333,-10.88,95,90,2.59,RU,1710173518
322,pisco,-13.7,-76.2167,25.57,73,21,3.6,PE,1710173519
323,kyrenia,35.3417,33.3167,18.75,63,8,2.94,CY,1710173282
324,yemetsk,63.4721,41.7941,-0.84,95,100,3.98,RU,1710173519
325,al wafrah,28.6392,47.9306,19.85,60,0,6.24,KW,1710173252
326,khadzhalmakhi,42.42,47.1821,0.08,93,100,1.89,RU,1710173519
327,val-d'or,48.1002,-77.7828,-4.45,71,9,5.81,CA,1710173519
328,newton,42.337,-71.2092,6.35,51,75,10.29,US,1710173519
329,acarau,-2.8856,-40.12,29.77,72,49,3.82,BR,1710173519
330,istgah-e rah ahan-e garmsar,35.2346,52.3094,11.62,60,100,2.9,IR,1710173519
331,petropavlovsk-kamchatsky,53.0452,158.6483,-3.64,93,100,4.02,RU,1710173250
332,tsiombe,-25.3,45.4833,25.18,87,73,4.25,MG,1710173520
333,suoyarvi,62.0833,32.35,-1.15,92,100,2.92,RU,1710173520
334,loches,47.1333,1.0,13.19,76,77,4.38,FR,1710173520
335,thames,-37.1333,175.5333,17.2,94,100,1.88,NZ,1710173520
336,kas,36.2018,29.6377,14.05,70,62,1.46,TR,1710173520
337,palmer,42.1584,-72.3287,4.48,56,69,2.68,US,1710173520
338,pierre,44.3683,-100.351,8.51,42,0,2.06,US,1710173521
339,manokwari,-0.8667,134.0833,25.81,85,100,2.05,ID,1710173256
340,kamloops,50.6665,-120.3192,5.55,65,75,7.72,CA,1710173521
341,marquette,46.5333,-87.6335,7.36,39,100,4.02,US,1710173479
342,fuerte olimpo,-21.0415,-57.8738,38.91,33,76,3.4,PY,1710173521
343,balkanabat,39.5108,54.3671,11.31,57,36,4.49,TM,1710173521
344,port alfred,-33.5906,26.891,24.54,94,44,1.34,ZA,1710173233
345,la ronge,55.1001,-105.2842,0.14,64,100,1.03,CA,1710173521
346,feijo,-8.1642,-70.3536,33.86,50,97,0.42,BR,1710173522
347,klyuchi,52.2667,79.1667,-6.11,94,26,3.26,RU,1710173500
348,khandyga,62.6667,135.6,-33.04,100,73,1.26,RU,1710173522
349,christchurch,-43.5333,172.6333,12.73,91,100,4.63,NZ,1710173522
350,hammerfest,70.6634,23.6821,2.25,100,75,5.66,NO,1710173401
351,mgandu,-5.95,34.1333,19.24,91,23,2.03,TZ,1710173522
352,brak,27.5496,14.2714,31.18,6,0,5.24,LY,1710173522
353,calama,-22.4667,-68.9333,26.81,14,89,5.22,CL,1710173522
354,oleksandrivka,48.9634,32.2349,3.19,43,42,3.76,UA,1710173523
355,gilgit,35.9221,74.3087,3.72,77,100,0.99,PK,1710173523
356,tshabong,-26.05,22.45,37.46,9,1,3.31,BW,1710173400
357,sabang,5.8933,95.3214,28.69,71,19,6.08,ID,1710173523
358,montepuez,-13.1256,38.9997,23.77,90,99,1.07,MZ,1710173523
359,mbandaka,0.0487,18.2603,25.6,82,100,5.38,CD,1710173523
360,yeppoon,-23.1333,150.7333,22.88,80,76,8.33,AU,1710173523
361,west bay,19.3667,-81.4167,30.04,70,20,3.6,KY,1710173524
362,kuhsan,34.6539,61.1978,17.09,48,61,3.65,AF,1710173524
363,constitucion,-35.3333,-72.4167,17.71,62,2,2.7,CL,1710173524
364,manaure,11.7751,-72.4445,31.66,52,100,7.22,CO,1710173524
365,bandarbeyla,9.4942,50.8122,27.05,73,3,4.39,SO,1710173524
366,cono norte,-16.3166,-71.5829,20.03,49,0,4.63,PE,1710173524
367,cuenca,-2.8833,-78.9833,15.05,91,100,1.72,EC,1710173285
368,serhetabat,35.2799,62.3438,14.08,58,51,4.01,TM,1710173524
369,vorkuta,67.5,64.0,-27.36,100,95,2.22,RU,1710173319
370,priozersk,61.0393,30.1291,-2.02,91,11,2.06,RU,1710173525
371,nikolayevsk-on-amure,53.1406,140.73,-17.99,98,100,0.63,RU,1710173525
372,las khorey,11.1595,48.1967,28.34,76,2,4.14,SO,1710173525
373,mombasa,-4.0547,39.6636,30.23,66,20,4.63,KE,1710173525
374,trincomalee,8.5711,81.2335,27.42,71,27,4.98,LK,1710173525
375,el galpon,-25.3807,-64.6526,34.69,46,8,3.73,AR,1710173525
376,junnar,19.2,73.8833,25.12,29,0,2.53,IN,1710173526
377,pendleton,45.6721,-118.7886,8.09,78,0,2.06,US,1710173526
378,menaka,15.9182,2.4022,41.57,7,32,2.96,ML,1710173526
379,aleg,17.0481,-13.9209,36.77,9,61,3.73,MR,1710173526
380,noosa heads,-26.3833,153.15,25.06,80,22,8.91,AU,1710173526
381,nova xavantina,-14.6667,-52.35,33.47,54,75,0.51,BR,1710173526
382,port saint john's,-31.6229,29.5448,27.65,77,0,7.34,ZA,1710173526
383,san matias,-16.3667,-58.4,37.77,39,91,1.47,BO,1710173526
384,pudozh,61.8099,36.5345,-0.03,94,82,4.02,RU,1710173527
385,bestobe,52.4994,73.0975,-11.76,93,15,4.59,KZ,1710173527
386,ingeniero jacobacci,-41.3427,-69.5448,19.49,31,100,6.87,AR,1710173527
387,katsuura,35.1333,140.3,12.76,62,100,9.34,JP,1710173527
388,namtsy,62.7161,129.6658,-27.94,100,100,0.86,RU,1710173527
389,kristiansund,63.1115,7.732,4.36,52,0,2.57,NO,1710173527
390,makurazaki,31.2667,130.3167,13.46,95,100,6.1,JP,1710173527
391,saint-philippe,-21.3585,55.7679,27.77,85,48,5.12,RE,1710173527
392,moraga,37.8349,-122.1297,11.06,87,40,2.24,US,1710173528
393,karachi,24.9056,67.0822,23.9,73,0,3.09,PK,1710173151
394,peace river,56.2501,-117.286,-3.83,93,40,1.03,CA,1710173528
395,puerto carreno,6.189,-67.4859,38.02,30,89,1.93,CO,1710173528
396,ruayer,43.0537,-5.5502,11.05,89,98,2.28,ES,1710173528
397,arraial do cabo,-22.9661,-42.0278,28.92,79,20,6.69,BR,1710173528
398,dampit,-8.2116,112.7493,21.69,90,100,1.28,ID,1710173528
399,hilo,19.7297,-155.09,24.04,90,75,2.06,US,1710173528
400,bakanas,44.8081,76.2772,8.4,73,11,2.81,KZ,1710173529
401,roslavl',53.9528,32.8639,-3.98,82,11,0.84,RU,1710173529
402,necochea,-38.5473,-58.7368,25.79,61,61,7.25,AR,1710173231
403,akrehamn,59.2667,5.1833,9.01,61,0,3.6,NO,1710173529
404,bubaque,11.2833,-15.8333,26.55,67,7,7.46,GW,1710173529
405,broome,42.2506,-75.833,4.28,62,0,10.29,US,1710173529
406,qarazhal,48.0078,70.7903,-3.56,91,100,2.1,KZ,1710173529
407,marsa alam,25.0757,34.8918,21.46,57,9,5.63,EG,1710173292
408,mumford,5.2618,-0.759,29.58,72,46,5.65,GH,1710173529
409,kone,-21.0595,164.8658,25.34,83,100,2.13,NC,1710173530
410,praia da vitoria,38.7333,-27.0667,17.14,77,40,13.5,PT,1710173290
411,yenangyaung,20.4667,94.8833,26.23,35,3,2.79,MM,1710173530
412,touros,-5.1989,-35.4608,31.73,59,93,2.12,BR,1710173530
413,nova vicosa,-17.8919,-39.3719,30.93,65,100,3.5,BR,1710173530
414,mo i rana,66.3128,14.1428,-1.74,50,0,2.06,NO,1710173530
415,rubtsovsk,51.5,81.25,-2.06,95,100,3.09,RU,1710173530
416,wotho,10.1657,166.0102,26.71,82,85,9.66,MH,1710173530
417,fisterra,42.9049,-9.2629,13.75,74,79,3.03,ES,1710173531
418,totness,5.8833,-56.3167,29.9,60,78,4.01,SR,1710173531
419,palu,-0.8917,119.8707,25.32,96,99,0.57,ID,1710173531
420,gorontalo,0.5412,123.0595,23.85,92,92,1.57,ID,1710173531
421,mao,39.8885,4.2658,15.31,58,40,7.2,ES,1710173531
422,puerto deseado,-47.7503,-65.8938,15.3,35,3,3.84,AR,1710173531
423,phan rang-thap cham,11.5667,108.9833,24.01,84,100,3.26,VN,1710173531
424,miquelon,47.0975,-56.3814,1.0,95,100,19.39,PM,1710173532
425,san andres,12.5847,-81.7006,31.01,66,20,7.2,CO,1710173460
426,pacific grove,36.6177,-121.9166,11.15,90,100,1.34,US,1710173532
427,la chevroliere,47.0912,-1.6097,13.51,67,75,8.23,FR,1710173532
428,pangai,-19.8,-174.35,26.34,89,100,9.33,TO,1710173532
429,arys,42.4252,68.795,13.21,59,100,2.29,KZ,1710173532
430,kavaratti,10.5669,72.642,28.61,66,32,4.17,IN,1710173532
431,vokhtoga,58.8147,41.0461,-1.45,94,100,4.74,RU,1710173532
432,vorgashor,67.5833,63.95,-27.42,100,96,2.36,RU,1710173533
433,khorixas,-20.3667,14.9667,33.04,29,75,5.36,NA,1710173419
434,ibirama,-27.0569,-49.5178,28.7,41,21,1.17,BR,1710173533
435,orasu nou,47.8333,23.2833,14.97,73,100,3.74,RO,1710173533
436,aldinga beach,-35.2793,138.4604,29.9,55,72,3.4,AU,1710173533
437,chul'man,56.8479,124.9104,-21.57,100,96,1.17,RU,1710173533
438,salinopolis,-0.6136,-47.3561,25.4,93,100,1.91,BR,1710173534
439,suva,-18.1416,178.4415,23.71,100,75,3.6,FJ,1710173410
440,el granada,37.5027,-122.4694,11.94,90,75,3.09,US,1710173534
441,richards bay,-28.783,32.0377,27.64,73,0,5.43,ZA,1710173534
442,buta,2.7858,24.73,23.34,96,99,2.09,CD,1710173393
443,argostolion,38.1811,20.489,18.75,57,75,11.32,GR,1710173534
444,raja,8.4596,25.678,37.59,9,20,2.9,SS,1710173534
445,aveley,51.4999,0.2517,8.95,86,100,4.63,GB,1710173535
446,kapa'a,22.0752,-159.319,21.99,88,75,9.26,US,1710173535
447,venev,54.3553,38.2684,-2.95,91,100,5.33,RU,1710173535
448,ulsteinvik,62.3432,5.8487,6.61,59,97,1.34,NO,1710173535
449,trabzon,40.9167,39.8333,8.05,54,0,3.6,TR,1710173073
450,ungsang-nodongjagu,42.3578,130.4622,1.48,62,96,2.56,KP,1710173535
451,torghay,49.6339,63.4981,-11.93,97,28,1.38,KZ,1710173536
452,sarandi grande,-33.7333,-56.3333,28.42,41,53,5.34,UY,1710173536
453,egilsstadir,65.2653,-14.3948,2.95,81,40,4.63,IS,1710173536
454,tual,-5.6667,132.75,27.21,82,100,7.42,ID,1710173536
455,waddan,29.1614,16.139,30.86,8,0,5.27,LY,1710173536
456,mashhad,36.297,59.6062,11.08,76,75,6.17,IR,1710173395
457,'alaqahdari dishu,30.4374,63.313,20.99,36,0,4.48,AF,1710173536
458,amuntai,-2.4177,115.2494,25.0,89,100,0.47,ID,1710173537
459,chinde,26.8418,88.0763,14.52,38,1,2.36,NP,1710173537
460,gornopravdinsk,60.05,69.9,-13.72,97,100,1.61,RU,1710173537
461,comandante fontana,-25.3345,-59.6821,40.64,28,92,5.15,AR,1710173537
462,san antonio de pale,-1.4014,5.6325,29.37,69,40,2.01,GQ,1710173537
463,vernon,50.2581,-119.2691,6.27,88,97,1.54,CA,1710173537
464,west odessa,31.8424,-102.4988,14.11,50,0,5.14,US,1710173537
465,antsiranana,-12.2787,49.2917,26.58,85,76,5.45,MG,1710173538
466,troitsko-pechorsk,62.7084,56.1964,-17.39,99,100,1.34,RU,1710173538
467,liman,48.9884,37.8023,-0.16,42,0,2.18,UA,1710173538
468,san jose del guaviare,2.5729,-72.6459,33.81,51,71,1.25,CO,1710173538
469,rengo,-34.4167,-70.8667,26.25,32,36,2.48,CL,1710173538
470,the bottom,17.6259,-63.2492,24.36,73,0,4.4,BQ,1710173538
471,kavieng,-2.5744,150.7967,26.95,85,100,6.13,PG,1710173538
472,porto de moz,-1.7483,-52.2383,30.36,68,92,1.93,BR,1710173538
473,gadzhiyevo,69.2551,33.3362,-2.0,93,100,4.54,RU,1710173250
474,gobabis,-22.45,18.9667,31.62,24,96,2.54,NA,1710173539
475,laminusa,5.5549,120.9136,27.43,76,100,2.99,PH,1710173539
476,nemuro,43.3236,145.575,0.21,85,97,3.45,JP,1710173539
477,cururupu,-1.8283,-44.8683,30.96,66,99,2.55,BR,1710173539
478,nagqu,31.5,92.0,1.63,30,100,6.52,CN,1710173539
479,georgetown,5.4112,100.3354,27.96,69,20,0.51,MY,1710173539
480,cajabamba,-7.6167,-78.05,19.6,55,87,2.31,PE,1710173539
481,belyy yar,53.6039,91.3903,0.94,75,0,2.0,RU,1710173539
482,tangalle,6.024,80.7911,26.02,72,19,4.77,LK,1710173540
483,holmsund,63.706,20.3641,-3.03,68,20,3.6,SE,1710173540
484,saldanha,-33.0117,17.9442,19.47,87,37,7.11,ZA,1710173540
485,damara,4.9608,18.7035,38.26,22,85,2.38,CF,1710173540
486,anqing,30.5092,117.0506,13.47,72,0,3.01,CN,1710173540
487,port said,31.2565,32.2841,17.03,63,0,7.49,EG,1710173286
488,glace bay,46.1969,-59.957,4.32,97,100,6.17,CA,1710173540
489,sumbe,-11.2061,13.8437,29.1,79,97,4.2,AO,1710173540
490,vila velha,-20.3297,-40.2925,28.3,77,40,6.71,BR,1710173540
491,hadibu,12.65,54.0333,27.08,72,0,4.44,YE,1710173541
492,bunia,1.5667,30.25,26.07,47,99,2.37,CD,1710173392
493,aquidauana,-20.4711,-55.7872,37.44,39,100,1.58,BR,1710173541
494,strezhevoy,60.7333,77.5889,-24.46,100,83,1.79,RU,1710173541
495,chaumont,48.1167,5.1333,11.32,76,70,4.21,FR,1710173541
496,kamienna gora,50.7831,16.0304,12.95,66,100,1.96,PL,1710173541
497,craig,40.5153,-107.5464,-2.03,64,0,1.54,US,1710173541
498,fale old settlement,-9.3852,-171.2468,29.31,76,41,5.07,TK,1710173541
499,ta`u,-14.2336,-169.5144,28.25,80,100,3.36,AS,1710173542
500,karlskrona,56.1616,15.5866,3.25,97,100,7.29,SE,1710173493
501,illushi,6.6667,6.6308,31.52,58,89,5.42,NG,1710173542
502,jinchang,38.4953,102.1739,2.89,38,20,2.73,CN,1710173542
503,kenai,60.5544,-151.2583,-8.97,100,75,4.12,US,1710173542
504,labe,11.3182,-12.2833,35.55,11,84,2.91,GN,1710173542
505,zhob,31.3411,69.4481,12.6,57,71,2.87,PK,1710173542
506,waingapu,-9.6567,120.2641,25.82,90,100,4.6,ID,1710173542
507,huilong,31.8111,121.655,9.8,85,8,3.43,CN,1710173542
508,dubbo,-32.25,148.6167,21.07,60,97,4.63,AU,1710173543
509,key largo,25.0865,-80.4473,25.0,57,1,8.18,US,1710173543
510,oral,51.2333,51.3667,-10.01,92,40,3.0,KZ,1710173543
511,choyr,46.3611,108.3611,-14.73,92,33,1.91,MN,1710173543
512,kenneth city,27.8156,-82.7201,21.18,43,0,4.63,US,1710173543
513,khorinsk,52.1657,109.7726,-8.55,94,100,1.56,RU,1710173543
514,bangassou,4.7413,22.8184,35.54,30,80,1.56,CF,1710173543
515,soio,-6.1349,12.3689,29.3,83,100,4.31,AO,1710173543
516,cavalaire-sur-mer,43.174,6.5272,15.4,68,63,6.42,FR,1710173503
517,biloela,-24.4167,150.5,21.86,76,38,7.77,AU,1710173544
518,sutherlin,43.3901,-123.3126,5.35,61,75,0.0,US,1710173544
519,st. john's,47.5649,-52.7093,0.99,95,100,9.77,CA,1710173544
520,wynyard,-41.0,145.7167,21.54,67,100,3.74,AU,1710173544
521,kibale,0.8,31.0667,22.66,67,68,1.38,UG,1710173544
522,turabah,21.2141,41.6331,26.9,19,17,6.88,SA,1710173544
523,vilhena,-12.7406,-60.1458,28.63,74,100,0.9,BR,1710173544
524,usuki,33.1081,131.7878,9.44,96,100,2.66,JP,1710173544
525,kinango,-4.1372,39.3153,29.06,74,6,3.9,KE,1710173545
526,shohimardon,39.9839,71.8028,5.43,60,100,3.39,UZ,1710173545
527,mizan teferi,6.9833,35.5833,20.18,82,46,1.13,ET,1710173545
528,tamandare,-8.7597,-35.1047,31.3,60,40,4.25,BR,1710173545
529,san luis de la loma,17.2706,-100.8939,29.28,46,1,2.22,MX,1710173545
530,san francisco de la paz,14.9,-86.2,30.84,41,24,1.81,HN,1710173545
531,bodaybo,57.8506,114.1933,-3.32,95,100,2.74,RU,1710173545
532,pagar alam,-4.0167,103.2667,20.16,95,99,1.44,ID,1710173545
533,bornu yassu,12.2774,12.5552,39.84,7,87,7.85,NG,1710173545
534,bognor regis,50.7821,-0.6798,10.12,85,100,0.45,GB,1710173546
535,vila franca do campo,37.7167,-25.4333,18.27,99,100,9.94,PT,1710173546
536,perg,48.25,14.6333,11.91,71,100,1.72,AT,1710173546
537,kununurra,-15.7667,128.7333,25.99,100,100,1.54,AU,1710173546
538,salinas,36.6777,-121.6555,11.38,91,100,6.17,US,1710173308
539,lastoursville,-0.8143,12.7287,34.67,49,96,0.53,GA,1710173546
540,strelka,58.0728,93.0344,-3.35,94,100,2.34,RU,1710173306
541,alegrete,-29.7831,-55.7919,33.4,28,1,5.49,BR,1710173546
542,villa gesell,-37.2639,-56.973,19.47,84,100,6.76,AR,1710173546
543,reggane,26.7158,0.1714,30.12,15,1,2.18,DZ,1710173547
544,krasnozerskoye,53.9828,79.2374,-6.06,87,100,5.06,RU,1710173547
545,tucuma,-0.1833,-50.05,26.85,90,99,3.16,BR,1710173547
546,castillos,-34.1667,-53.8333,27.13,41,86,4.59,UY,1710173547
547,lerwick,60.1545,-1.1494,6.0,82,100,5.88,GB,1710173547
548,tete,-16.1564,33.5867,30.46,56,18,1.62,MZ,1710173547
549,malmberget,67.1753,20.6549,1.31,69,0,2.57,SE,1710173547
550,mar del plata,-38.0023,-57.5575,20.53,75,100,3.13,AR,1710173528
551,borogontsy,62.6683,131.1683,-29.01,100,99,1.57,RU,1710173548
552,rio verde,21.9333,-99.9833,17.32,61,76,1.1,MX,1710173275
553,ulaangom,49.9811,92.0667,-17.64,93,68,1.72,MN,1710173548
554,williams lake,52.1415,-122.1445,1.76,89,75,4.63,CA,1710173548
555,phan thiet,10.9333,108.1,25.09,80,92,5.26,VN,1710173548
556,kilmore,-37.3,144.95,24.88,39,12,1.27,AU,1710173548
557,katsuren-haebaru,26.3369,127.8719,20.01,93,100,8.79,JP,1710173548
558,tindouf,27.6711,-8.1474,29.25,16,0,2.06,DZ,1710173548
559,sao raimundo das mangabeiras,-7.0219,-45.4811,33.66,46,35,2.45,BR,1710173549
560,bhatpara abhaynagar,23.0153,89.4432,23.93,20,0,2.09,BD,1710173549
561,minas de marcona,-15.2119,-75.1103,22.14,67,39,6.81,PE,1710173549
